$GPRMC,183425,A,4131.4805,N,07040.2562,W,000.0,000.0,070617,014.8,W*7B
$GPGGA,183425,4131.4805,N,07040.2562,W,1,07,1.2,3.7,M,-32.9,M,,*72
$GPGSA,A,3,01,07,08,,11,13,17,,30,,,,1.5,1.2,0.9*35
$GPGSV,3,1,11,01,63,137,35,07,43,190,39,08,34,058,26,10,03,033,23*7B
$GPGSV,3,2,11,11,72,085,28,13,11,302,18,17,25,253,23,22,11,124,17*75
$GPGSV,3,3,11,30,60,252,31,06,14,218,00,19,02,247,00*48
$GPRMC,183426,A,4131.4806,N,07040.2562,W,000.0,000.0,070617,014.8,W*7B
$GPGGA,183426,4131.4806,N,07040.2562,W,1,07,1.2,3.7,M,-32.9,M,,*72
$GPGSA,A,3,01,07,08,,11,13,17,,30,,,,1.5,1.2,0.9*35
$GPGSV,3,1,11,01,63,137,35,07,43,190,39,08,34,058,26,10,03,033,23*7B
$GPGSV,3,2,11,11,72,085,27,13,11,302,18,17,25,253,24,22,11,124,17*7D
$GPGSV,3,3,11,30,60,252,30,06,14,218,00,19,02,247,00*49
$GPRMC,183427,A,4131.4807,N,07040.2563,W,000.0,000.0,070617,014.8,W*7A
$GPGGA,183427,4131.4807,N,07040.2563,W,1,07,1.2,3.7,M,-32.9,M,,*73
$GPGSA,A,3,01,07,08,,11,13,17,,30,,,,1.5,1.2,0.9*35
$GPGSV,3,1,11,01,63,137,35,07,43,190,39,08,34,058,26,10,03,033,23*7B
$GPGSV,3,2,11,11,72,085,27,13,11,302,18,17,25,253,24,22,11,124,17*7D
$GPGSV,3,3,11,30,60,252,31,06,14,218,00,19,02,247,00*48
$GPRMC,183428,A,4131.4807,N,07040.2564,W,000.0,000.0,070617,014.8,W*72
$GPGGA,183428,4131.4807,N,07040.2564,W,1,07,1.2,3.7,M,-32.9,M,,*7B
$GPGSA,A,3,01,07,08,,11,13,17,,30,,,,1.5,1.2,0.9*35
$GPGSV,3,1,11,01,63,137,35,07,43,190,39,08,34,058,26,10,03,033,23*7B
$GPGSV,3,2,11,11,72,085,26,13,11,302,18,17,25,253,24,22,11,124,17*7C
$GPGSV,3,3,11,30,60,251,31,06,14,218,00,19,02,247,00*4B
$GPRMC,183429,A,4131.4807,N,07040.2564,W,000.0,000.0,070617,014.8,W*73
$GPGGA,183429,4131.4807,N,07040.2564,W,1,07,1.2,3.7,M,-32.9,M,,*7A
$GPGSA,A,3,01,07,08,,11,13,17,,30,,,,1.5,1.2,0.9*35
$GPGSV,3,1,11,01,63,137,35,07,43,190,39,08,34,058,26,10,03,033,23*7B
$GPGSV,3,2,11,11,72,085,26,13,11,302,18,17,25,253,24,22,11,124,18*73
$GPGSV,3,3,11,30,60,251,31,06,14,218,00,19,02,247,00*4B
$GPRMC,183430,A,4131.4808,N,07040.2564,W,000.0,000.0,070617,014.8,W*74
$GPGGA,183430,4131.4808,N,07040.2564,W,1,07,1.2,3.7,M,-32.9,M,,*7D
$GPGSA,A,3,01,07,08,,11,13,17,,30,,,,1.5,1.2,0.9*35
$GPGSV,3,1,11,01,63,137,35,07,43,190,39,08,34,058,26,10,03,033,24*7C
$GPGSV,3,2,11,11,72,085,26,13,11,302,18,17,25,253,24,22,11,124,18*73
$GPGSV,3,3,11,30,60,251,31,06,14,218,00,19,02,247,00*4B
$GPRMC,183431,A,4131.4808,N,07040.2564,W,000.0,000.0,070617,014.8,W*75
$GPGGA,183431,4131.4808,N,07040.2564,W,1,07,1.5,3.7,M,-32.9,M,,*7B
$GPGSA,A,3,01,07,08,,11,13,17,,30,,,,2.7,1.5,2.2*3A
$GPGSV,3,1,11,01,63,137,35,07,43,190,39,08,34,058,26,10,03,033,21*79
$GPGSV,3,2,11,11,72,085,26,13,11,302,18,17,25,253,24,22,11,124,18*73
$GPGSV,3,3,11,30,60,251,31,06,14,218,00,19,02,247,00*4B
$GPRMC,183432,A,4131.4808,N,07040.2565,W,000.0,000.0,070617,014.8,W*77
$GPGGA,183432,4131.4808,N,07040.2565,W,1,07,1.2,3.7,M,-32.9,M,,*7E
$GPGSA,A,3,01,07,08,,11,13,17,,30,,,,1.5,1.2,0.9*35
$GPGSV,3,1,11,01,63,137,35,07,43,190,39,08,34,058,26,10,03,033,22*7A
$GPGSV,3,2,11,11,72,085,26,13,11,302,18,17,25,253,24,22,11,124,18*73
$GPGSV,3,3,11,30,60,251,31,06,14,218,00,19,02,247,00*4B
$GPRMC,183433,A,4131.4809,N,07040.2565,W,000.0,000.0,070617,014.8,W*77
$GPGGA,183433,4131.4809,N,07040.2565,W,1,07,1.5,3.7,M,-32.9,M,,*79
$GPGSA,A,3,01,07,08,,11,13,17,,30,,,,2.7,1.5,2.2*3A
$GPGSV,3,1,11,01,63,137,35,07,43,190,39,08,34,058,26,10,03,033,22*7A
$GPGSV,3,2,11,11,72,085,26,13,11,302,18,17,25,253,24,22,11,124,18*73
$GPGSV,3,3,11,30,60,251,31,06,14,218,00,19,02,247,00*4B
$GPRMC,183434,A,4131.4809,N,07040.2565,W,000.0,000.0,070617,014.8,W*70
$GPGGA,183434,4131.4809,N,07040.2565,W,1,07,1.2,3.7,M,-32.9,M,,*79
$GPGSA,A,3,01,07,08,,11,13,17,,30,,,,1.5,1.2,0.9*35
$GPGSV,3,1,11,01,63,137,34,07,43,190,39,08,34,058,26,10,03,033,23*7A
$GPGSV,3,2,11,11,72,085,26,13,11,302,18,17,25,253,24,22,11,124,18*73
$GPGSV,3,3,11,30,60,251,31,06,14,218,00,19,02,247,00*4B
$GPRMC,183435,A,4131.4809,N,07040.2564,W,000.0,000.0,070617,014.8,W*70
$GPGGA,183435,4131.4809,N,07040.2564,W,1,07,1.2,3.6,M,-32.9,M,,*78
$GPGSA,A,3,01,07,08,,11,13,17,,30,,,,1.5,1.2,0.9*35
$GPGSV,3,1,11,01,63,137,34,07,43,190,39,08,34,058,26,10,03,033,23*7A
$GPGSV,3,2,11,11,72,085,26,13,11,302,18,17,25,253,24,22,11,124,18*73
$GPGSV,3,3,11,30,60,251,31,06,14,218,00,19,02,247,00*4B
$GPRMC,183436,A,4131.4809,N,07040.2564,W,000.0,000.0,070617,014.8,W*73
$GPGGA,183436,4131.4809,N,07040.2564,W,1,07,1.2,3.6,M,-32.9,M,,*7B
$GPGSA,A,3,01,07,08,,11,13,17,,30,,,,1.5,1.2,0.9*35
$GPGSV,3,1,11,01,63,137,34,07,43,190,39,08,34,058,26,10,03,033,23*7A
$GPGSV,3,2,11,11,72,085,26,13,11,302,18,17,25,253,24,22,11,124,18*73
$GPGSV,3,3,11,30,60,251,31,06,14,218,00,19,02,247,00*4B
$GPRMC,183437,A,4131.4810,N,07040.2564,W,000.0,000.0,070617,014.8,W*7A
$GPGGA,183437,4131.4810,N,07040.2564,W,1,07,1.2,3.6,M,-32.9,M,,*72
$GPGSA,A,3,01,07,08,,11,13,17,,30,,,,1.5,1.2,0.9*35
$GPGSV,3,1,11,01,63,137,34,07,43,190,39,08,34,058,26,10,03,033,23*7A
$GPGSV,3,2,11,11,72,085,26,13,11,302,18,17,25,253,25,22,11,124,18*72
$GPGSV,3,3,11,30,60,251,31,06,14,218,00,19,02,247,00*4B
$GPRMC,183438,A,4131.4811,N,07040.2564,W,000.0,000.0,070617,014.8,W*74
$GPGGA,183438,4131.4811,N,07040.2564,W,1,07,1.5,3.6,M,-32.9,M,,*7B
$GPGSA,A,3,01,07,08,,11,13,17,,30,,,,2.7,1.5,2.2*3A
$GPGSV,3,1,11,01,63,137,34,07,43,190,39,08,34,058,26,10,03,033,23*7A
$GPGSV,3,2,11,11,72,085,25,13,11,302,18,17,25,253,25,22,11,124,18*71
$GPGSV,3,3,11,30,60,251,32,06,14,218,00,19,02,247,00*48
$GPRMC,183439,A,4131.4811,N,07040.2563,W,000.0,000.0,070617,014.8,W*72
$GPGGA,183439,4131.4811,N,07040.2563,W,1,07,1.5,3.6,M,-32.9,M,,*7D
$GPGSA,A,3,01,07,08,,11,13,17,,30,,,,2.7,1.5,2.2*3A
$GPGSV,3,1,11,01,63,137,33,07,43,190,40,08,34,058,27,10,03,033,23*72
$GPGSV,3,2,11,11,72,085,25,13,11,302,18,17,25,253,25,22,11,124,18*71
$GPGSV,3,3,11,30,60,251,32,06,14,218,00,19,02,247,00*48
$GPRMC,183440,A,4131.4812,N,07040.2563,W,000.0,000.0,070617,014.8,W*7F
$GPGGA,183440,4131.4812,N,07040.2563,W,1,07,1.2,3.6,M,-32.9,M,,*77
$GPGSA,A,3,01,07,08,,11,13,17,,30,,,,1.5,1.2,0.9*35
$GPGSV,3,1,11,01,63,137,33,07,43,190,40,08,34,058,27,10,03,033,23*72
$GPGSV,3,2,11,11,72,085,25,13,11,302,18,17,25,253,26,22,11,124,18*72
$GPGSV,3,3,11,30,60,251,31,06,14,218,00,19,02,247,00*4B
$GPRMC,183441,A,4131.4812,N,07040.2563,W,000.0,000.0,070617,014.8,W*7E
$GPGGA,183441,4131.4812,N,07040.2563,W,1,07,1.5,3.6,M,-32.9,M,,*71
$GPGSA,A,3,01,07,08,,11,13,17,,30,,,,2.7,1.5,2.2*3A
$GPGSV,3,1,11,01,63,137,33,07,43,190,40,08,34,058,27,10,03,033,23*72
$GPGSV,3,2,11,11,72,085,25,13,11,302,18,17,25,253,26,22,11,124,18*72
$GPGSV,3,3,11,30,60,251,31,06,14,218,00,19,02,247,00*4B
$GPRMC,183442,A,4131.4813,N,07040.2563,W,000.0,000.0,070617,014.8,W*7C
$GPGGA,183442,4131.4813,N,07040.2563,W,1,07,1.5,3.6,M,-32.9,M,,*73
$GPGSA,A,3,01,07,08,,11,13,17,,30,,,,2.7,1.5,2.2*3A
$GPGSV,3,1,11,01,63,137,33,07,43,190,40,08,34,058,27,10,03,033,23*72
$GPGSV,3,2,11,11,72,085,24,13,11,302,18,17,25,253,26,22,11,124,18*73
$GPGSV,3,3,11,30,60,251,31,06,14,218,00,19,02,247,00*4B
$GPRMC,183443,A,4131.4814,N,07040.2563,W,000.0,000.0,070617,014.8,W*7A
$GPGGA,183443,4131.4814,N,07040.2563,W,1,07,1.2,3.6,M,-32.9,M,,*72
$GPGSA,A,3,01,07,08,,11,13,17,,30,,,,1.5,1.2,0.9*35
$GPGSV,3,1,11,01,63,137,33,07,43,190,40,08,34,058,27,10,03,033,23*72
$GPGSV,3,2,11,11,72,085,24,13,11,302,18,17,25,253,25,22,11,124,18*70
$GPGSV,3,3,11,30,60,251,31,06,14,218,00,19,02,247,00*4B
$GPRMC,183444,A,4131.4814,N,07040.2563,W,000.0,000.0,070617,014.8,W*7D
$GPGGA,183444,4131.4814,N,07040.2563,W,1,07,1.5,3.6,M,-32.9,M,,*72
$GPGSA,A,3,01,07,08,,11,13,17,,30,,,,2.7,1.5,2.2*3A
$GPGSV,3,1,11,01,63,137,33,07,43,190,40,08,34,058,27,10,03,033,22*73
$GPGSV,3,2,11,11,72,084,24,13,11,302,18,17,25,253,25,22,11,124,18*71
$GPGSV,3,3,11,30,60,251,31,06,14,218,00,19,02,247,00*4B
$GPRMC,183445,A,4131.4814,N,07040.2563,W,000.0,000.0,070617,014.8,W*7C
$GPGGA,183445,4131.4814,N,07040.2563,W,1,07,1.2,3.6,M,-32.9,M,,*74
$GPGSA,A,3,01,07,08,,11,13,17,,30,,,,1.5,1.2,0.9*35
$GPGSV,3,1,11,01,63,137,33,07,43,190,40,08,34,058,26,10,03,033,22*72
$GPGSV,3,2,11,11,72,084,24,13,11,302,18,17,25,253,26,22,11,124,18*72
$GPGSV,3,3,11,30,60,251,31,06,14,218,00,19,02,247,00*4B
$GPRMC,183446,A,4131.4814,N,07040.2563,W,000.0,000.0,070617,014.8,W*7F
$GPGGA,183446,4131.4814,N,07040.2563,W,1,07,1.2,3.6,M,-32.9,M,,*77
$GPGSA,A,3,01,07,08,,11,13,17,,30,,,,1.5,1.2,0.9*35
$GPGSV,3,1,11,01,63,137,33,07,43,190,40,08,34,058,27,10,03,033,22*73
$GPGSV,3,2,11,11,72,084,24,13,11,302,18,17,25,253,26,22,11,124,18*72
$GPGSV,3,3,11,30,60,251,31,06,14,218,00,19,02,247,00*4B
$GPRMC,183447,A,4131.4814,N,07040.2563,W,000.0,000.0,070617,014.8,W*7E
$GPGGA,183447,4131.4814,N,07040.2563,W,1,07,1.2,3.6,M,-32.9,M,,*76
$GPGSA,A,3,01,07,08,,11,13,17,,30,,,,1.5,1.2,0.9*35
$GPGSV,3,1,11,01,63,137,33,07,43,190,40,08,34,058,27,10,03,033,21*70
$GPGSV,3,2,11,11,72,084,24,13,11,302,18,17,25,253,26,22,11,124,18*72
$GPGSV,3,3,11,30,60,251,31,06,14,218,00,19,02,247,00*4B
$GPRMC,183448,A,4131.4813,N,07040.2563,W,000.0,000.0,070617,014.8,W*76
$GPGGA,183448,4131.4813,N,07040.2563,W,1,07,1.2,3.6,M,-32.9,M,,*7E
$GPGSA,A,3,01,07,08,,11,13,17,,30,,,,1.5,1.2,0.9*35
$GPGSV,3,1,11,01,63,137,33,07,43,190,40,08,34,058,27,10,03,033,20*71
$GPGSV,3,2,11,11,72,084,24,13,11,302,18,17,25,253,25,22,11,124,18*71
$GPGSV,3,3,11,30,60,251,31,06,14,218,00,19,02,247,00*4B
$GPRMC,183449,A,4131.4813,N,07040.2564,W,000.0,000.0,070617,014.8,W*70
$GPGGA,183449,4131.4813,N,07040.2564,W,1,07,1.2,3.6,M,-32.9,M,,*78
$GPGSA,A,3,01,07,08,,11,13,17,,30,,,,1.5,1.2,0.9*35
$GPGSV,3,1,11,01,63,137,33,07,43,190,40,08,34,058,27,10,03,033,20*71
$GPGSV,3,2,11,11,72,084,23,13,11,302,18,17,25,253,25,22,11,124,19*77
$GPGSV,3,3,11,30,60,251,31,06,14,218,00,19,02,247,00*4B
$GPRMC,183450,A,4131.4812,N,07040.2564,W,000.0,000.0,070617,014.8,W*79
$GPGGA,183450,4131.4812,N,07040.2564,W,1,07,1.2,3.6,M,-32.9,M,,*71
$GPGSA,A,3,01,07,08,,11,13,17,,30,,,,1.5,1.2,0.9*35
$GPGSV,3,1,11,01,63,137,33,07,43,190,40,08,34,058,27,10,03,033,20*71
$GPGSV,3,2,11,11,72,084,22,13,11,302,18,17,25,254,25,22,11,124,19*71
$GPGSV,3,3,11,30,60,251,31,06,14,218,00,19,02,247,00*4B
$GPRMC,183451,A,4131.4812,N,07040.2564,W,000.0,000.0,070617,014.8,W*78
$GPGGA,183451,4131.4812,N,07040.2564,W,1,07,1.2,3.6,M,-32.9,M,,*70
$GPGSA,A,3,01,07,08,,11,13,17,,30,,,,1.5,1.2,0.9*35
$GPGSV,3,1,11,01,63,137,33,07,43,190,40,08,34,058,27,10,03,033,20*71
$GPGSV,3,2,11,11,72,084,22,13,11,302,18,17,25,254,25,22,11,124,19*71
$GPGSV,3,3,11,30,60,251,31,06,14,218,00,19,02,247,00*4B
$GPRMC,183452,A,4131.4812,N,07040.2564,W,000.0,000.0,070617,014.8,W*7B
$GPGGA,183452,4131.4812,N,07040.2564,W,1,07,1.2,3.6,M,-32.9,M,,*73
$GPGSA,A,3,01,07,08,,11,13,17,,30,,,,1.5,1.2,0.9*35
$GPGSV,3,1,11,01,63,137,33,07,43,190,40,08,34,058,27,10,03,033,20*71
$GPGSV,3,2,11,11,72,084,22,13,11,302,18,17,25,254,25,22,11,124,19*71
$GPGSV,3,3,11,30,60,251,31,06,14,218,00,19,02,247,00*4B
$GPRMC,183453,A,4131.4813,N,07040.2565,W,000.0,000.0,070617,014.8,W*7A
$GPGGA,183453,4131.4813,N,07040.2565,W,1,07,1.2,3.6,M,-32.9,M,,*72
$GPGSA,A,3,01,07,08,,11,13,17,,30,,,,1.5,1.2,0.9*35
$GPGSV,3,1,11,01,63,137,33,07,43,190,40,08,34,058,28,10,03,033,20*7E
$GPGSV,3,2,11,11,72,084,23,13,11,302,18,17,25,254,22,22,11,124,19*77
$GPGSV,3,3,11,30,60,251,31,06,14,218,00,19,02,247,00*4B
$GPRMC,183454,A,4131.4813,N,07040.2565,W,000.0,000.0,070617,014.8,W*7D
$GPGGA,183454,4131.4813,N,07040.2565,W,1,07,1.2,3.6,M,-32.9,M,,*75
$GPGSA,A,3,01,07,08,,11,13,17,,30,,,,1.5,1.2,0.9*35
$GPGSV,3,1,11,01,63,137,33,07,43,190,40,08,34,058,28,10,03,033,20*7E
$GPGSV,3,2,11,11,72,084,24,13,11,302,18,17,25,254,21,22,11,124,19*73
$GPGSV,3,3,11,30,60,251,31,06,14,218,00,19,02,247,00*4B
$GPRMC,183455,A,4131.4813,N,07040.2565,W,000.0,000.0,070617,014.8,W*7C
$GPGGA,183455,4131.4813,N,07040.2565,W,1,07,1.2,3.6,M,-32.9,M,,*74
$GPGSA,A,3,01,07,08,,11,13,17,,30,,,,1.5,1.2,0.9*35
$GPGSV,3,1,11,01,63,137,33,07,43,190,40,08,34,058,28,10,03,033,20*7E
$GPGSV,3,2,11,11,72,084,24,13,11,302,18,17,25,254,22,22,11,124,19*70
$GPGSV,3,3,11,30,60,251,31,06,14,218,00,19,02,247,00*4B
$GPRMC,183456,A,4131.4813,N,07040.2565,W,000.0,000.0,070617,014.8,W*7F
$GPGGA,183456,4131.4813,N,07040.2565,W,1,07,1.2,3.6,M,-32.9,M,,*77
$GPGSA,A,3,01,07,08,,11,13,17,,30,,,,1.5,1.2,0.9*35
$GPGSV,3,1,11,01,63,137,33,07,43,190,40,08,34,058,28,10,03,033,20*7E
$GPGSV,3,2,11,11,72,084,24,13,11,302,18,17,25,254,23,22,11,124,19*71
$GPGSV,3,3,11,30,60,251,31,06,14,218,00,19,02,247,00*4B
$GPRMC,183457,A,4131.4813,N,07040.2565,W,000.0,000.0,070617,014.8,W*7E
$GPGGA,183457,4131.4813,N,07040.2565,W,1,07,1.2,3.6,M,-32.9,M,,*76
$GPGSA,A,3,01,07,08,,11,13,17,,30,,,,1.5,1.2,0.9*35
$GPGSV,3,1,11,01,63,137,33,07,43,190,40,08,34,058,28,10,03,033,20*7E
$GPGSV,3,2,11,11,72,084,24,13,11,302,18,17,25,254,22,22,11,124,19*70
$GPGSV,3,3,11,30,60,251,31,06,14,218,00,19,02,247,00*4B
$GPRMC,183458,A,4131.4813,N,07040.2566,W,000.0,000.0,070617,014.8,W*72
$GPGGA,183458,4131.4813,N,07040.2566,W,1,07,1.2,3.6,M,-32.9,M,,*7A
$GPGSA,A,3,01,07,08,,11,13,17,,30,,,,1.5,1.2,0.9*35
$GPGSV,3,1,11,01,63,137,33,07,43,190,40,08,34,058,28,10,03,033,20*7E
$GPGSV,3,2,11,11,72,084,24,13,11,302,17,17,25,254,22,22,11,124,19*7F
$GPGSV,3,3,11,30,60,251,31,06,14,218,00,19,02,247,00*4B
$GPRMC,183459,A,4131.4812,N,07040.2566,W,000.0,000.0,070617,014.8,W*72
$GPGGA,183459,4131.4812,N,07040.2566,W,1,07,1.2,3.6,M,-32.9,M,,*7A
$GPGSA,A,3,01,07,08,,11,13,17,,30,,,,1.5,1.2,0.9*35
$GPGSV,3,1,11,01,63,137,33,07,43,190,40,08,34,058,28,10,03,033,20*7E
$GPGSV,3,2,11,11,72,084,23,13,11,302,16,17,25,254,22,22,11,124,19*79
$GPGSV,3,3,11,30,60,251,31,06,14,218,00,19,02,247,00*4B
$GPRMC,183500,A,4131.4811,N,07040.2566,W,000.0,000.0,070617,014.8,W*7C
$GPGGA,183500,4131.4811,N,07040.2566,W,1,07,1.2,3.6,M,-32.9,M,,*74
$GPGSA,A,3,01,07,08,,11,13,17,,30,,,,1.5,1.2,0.9*35
$GPGSV,3,1,11,01,63,137,33,07,43,190,40,08,34,058,28,10,03,033,19*74
$GPGSV,3,2,11,11,72,084,22,13,11,302,15,17,25,254,22,22,11,124,19*7B
$GPGSV,3,3,11,30,60,251,31,06,14,218,00,19,02,247,00*4B
$PGRMT,GPS 18x-LVC software ver. 4.00,,,,,,,,*6B
$GPRMC,183501,A,4131.4811,N,07040.2567,W,000.0,000.0,070617,014.8,W*7C
$GPGGA,183501,4131.4811,N,07040.2567,W,1,07,1.2,3.6,M,-32.9,M,,*74
$GPGSA,A,3,01,07,08,,11,13,17,,30,,,,1.5,1.2,0.9*35
$GPGSV,3,1,11,01,63,137,33,07,43,190,40,08,34,058,29,10,03,033,19*75
$GPGSV,3,2,11,11,72,084,22,13,11,302,15,17,25,254,22,22,11,124,18*7A
$GPGSV,3,3,11,30,60,251,30,06,14,218,00,19,02,247,00*4A
$GPRMC,183502,A,4131.4811,N,07040.2567,W,000.0,000.0,070617,014.8,W*7F
$GPGGA,183502,4131.4811,N,07040.2567,W,1,07,1.2,3.5,M,-32.9,M,,*74
$GPGSA,A,3,01,07,08,,11,13,17,,30,,,,1.5,1.2,0.9*35
$GPGSV,3,1,11,01,63,137,33,07,43,190,40,08,34,058,29,10,03,033,19*75
$GPGSV,3,2,11,11,72,084,21,13,11,302,12,17,25,254,22,22,11,124,18*7E
$GPGSV,3,3,11,30,60,251,31,06,14,218,00,19,02,247,00*4B
$GPRMC,183503,A,4131.4811,N,07040.2568,W,000.0,000.0,070617,014.8,W*71
$GPGGA,183503,4131.4811,N,07040.2568,W,1,07,1.2,3.5,M,-32.9,M,,*7A
$GPGSA,A,3,01,07,08,,11,13,17,,30,,,,1.5,1.2,0.9*35
$GPGSV,3,1,11,01,63,137,33,07,43,190,40,08,34,058,29,10,03,033,18*74
$GPGSV,3,2,11,11,72,084,21,13,11,302,15,17,25,254,22,22,11,124,18*79
$GPGSV,3,3,11,30,60,251,31,06,14,218,00,19,02,247,00*4B
$GPRMC,183504,A,4131.4810,N,07040.2568,W,000.0,000.0,070617,014.8,W*77
$GPGGA,183504,4131.4810,N,07040.2568,W,1,07,1.2,3.5,M,-32.9,M,,*7C
$GPGSA,A,3,01,07,08,,11,13,17,,30,,,,1.5,1.2,0.9*35
$GPGSV,3,1,11,01,63,137,33,07,43,190,40,08,34,058,29,10,03,033,17*7B
$GPGSV,3,2,11,11,72,084,21,13,11,302,14,17,25,254,23,22,11,124,18*79
$GPGSV,3,3,11,30,60,251,31,06,14,218,00,19,02,247,00*4B
$GPRMC,183505,A,4131.4810,N,07040.2568,W,000.0,000.0,070617,014.8,W*76
$GPGGA,183505,4131.4810,N,07040.2568,W,1,07,1.2,3.5,M,-32.9,M,,*7D
$GPGSA,A,3,01,07,08,,11,13,17,,30,,,,1.5,1.2,0.9*35
$GPGSV,3,1,11,01,63,137,33,07,43,190,40,08,34,058,29,10,03,033,17*7B
$GPGSV,3,2,11,11,72,084,22,13,11,302,15,17,25,254,23,22,11,124,19*7A
$GPGSV,3,3,11,30,60,251,31,06,14,218,00,19,02,247,00*4B
$GPRMC,183506,A,4131.4809,N,07040.2568,W,000.0,000.0,070617,014.8,W*7D
$GPGGA,183506,4131.4809,N,07040.2568,W,1,07,1.2,3.5,M,-32.9,M,,*76
$GPGSA,A,3,01,07,08,,11,13,17,,30,,,,1.5,1.2,0.9*35
$GPGSV,3,1,11,01,63,137,33,07,43,190,40,08,34,058,29,10,03,033,17*7B
$GPGSV,3,2,11,11,72,084,22,13,11,302,14,17,25,254,23,22,11,124,19*7B
$GPGSV,3,3,11,30,60,251,31,06,14,218,00,19,02,247,00*4B
$GPRMC,183507,A,4131.4809,N,07040.2567,W,000.0,000.0,070617,014.8,W*73
$GPGGA,183507,4131.4809,N,07040.2567,W,1,07,1.2,3.5,M,-32.9,M,,*78
$GPGSA,A,3,01,07,08,,11,13,17,,30,,,,1.5,1.2,0.9*35
$GPGSV,3,1,11,01,63,137,33,07,43,190,39,08,34,058,29,10,03,033,17*75
$GPGSV,3,2,11,11,72,084,23,13,11,302,13,17,25,254,23,22,11,124,19*7D
$GPGSV,3,3,11,30,60,251,30,06,14,218,00,19,02,247,00*4A
$GPRMC,183508,A,4131.4809,N,07040.2567,W,000.0,000.0,070617,014.8,W*7C
$GPGGA,183508,4131.4809,N,07040.2567,W,1,07,1.2,3.5,M,-32.9,M,,*77
$GPGSA,A,3,01,07,08,,11,13,17,,30,,,,1.5,1.2,0.9*35
$GPGSV,3,1,11,01,63,137,33,07,43,190,39,08,34,058,29,10,03,033,17*75
$GPGSV,3,2,11,11,72,084,24,13,11,302,13,17,25,254,23,22,11,124,19*7A
$GPGSV,3,3,11,30,60,251,30,06,14,218,00,19,02,247,00*4A
$GPRMC,183509,A,4131.4808,N,07040.2567,W,000.0,000.0,070617,014.8,W*7C
$GPGGA,183509,4131.4808,N,07040.2567,W,1,07,1.2,3.6,M,-32.9,M,,*74
$GPGSA,A,3,01,07,08,,11,13,17,,30,,,,1.5,1.2,0.9*35
$GPGSV,3,1,11,01,63,136,33,07,43,190,39,08,34,058,29,10,03,033,17*74
$GPGSV,3,2,11,11,72,084,24,13,11,302,14,17,25,254,22,22,11,124,19*7C
$GPGSV,3,3,11,30,60,251,30,06,14,218,00,19,02,247,00*4A
$GPRMC,183510,A,4131.4807,N,07040.2567,W,000.0,000.0,070617,014.8,W*7B
$GPGGA,183510,4131.4807,N,07040.2567,W,1,07,1.2,3.6,M,-32.9,M,,*73
$GPGSA,A,3,01,07,08,,11,13,17,,30,,,,1.5,1.2,0.9*35
$GPGSV,3,1,11,01,63,136,33,07,43,190,38,08,34,058,29,10,03,033,16*74
$GPGSV,3,2,11,11,72,084,24,13,11,302,13,17,25,254,22,22,11,124,19*7B
$GPGSV,3,3,11,30,60,251,29,06,14,218,00,19,02,247,00*42
$GPRMC,183511,A,4131.4807,N,07040.2567,W,000.0,000.0,070617,014.8,W*7A
$GPGGA,183511,4131.4807,N,07040.2567,W,1,07,1.2,3.6,M,-32.9,M,,*72
$GPGSA,A,3,01,07,08,,11,13,17,,30,,,,1.5,1.2,0.9*35
$GPGSV,3,1,11,01,63,136,33,07,43,190,38,08,34,058,29,10,03,033,16*74
$GPGSV,3,2,11,11,72,084,24,13,11,302,13,17,25,254,23,22,11,124,18*7B
$GPGSV,3,3,11,30,60,251,29,06,14,218,00,19,02,247,00*42
$GPRMC,183512,A,4131.4806,N,07040.2567,W,000.0,000.0,070617,014.8,W*78
$GPGGA,183512,4131.4806,N,07040.2567,W,1,07,1.2,3.6,M,-32.9,M,,*70
$GPGSA,A,3,01,07,08,,11,13,17,,30,,,,1.5,1.2,0.9*35
$GPGSV,3,1,11,01,63,136,33,07,43,190,37,08,34,058,29,10,03,033,16*7B
$GPGSV,3,2,11,11,72,084,24,13,11,302,14,17,25,254,23,22,11,124,18*7C
$GPGSV,3,3,11,30,60,251,28,06,14,218,00,19,02,247,00*43
$GPRMC,183513,A,4131.4805,N,07040.2567,W,000.0,000.0,070617,014.8,W*7A
$GPGGA,183513,4131.4805,N,07040.2567,W,1,07,1.2,3.6,M,-32.9,M,,*72
$GPGSA,A,3,01,07,08,,11,13,17,,30,,,,1.5,1.2,0.9*35
$GPGSV,3,1,11,01,63,136,32,07,43,190,36,08,34,058,28,10,03,033,16*7A
$GPGSV,3,2,11,11,72,084,23,13,11,302,14,17,25,254,23,22,11,124,18*7B
$GPGSV,3,3,11,30,60,251,28,06,14,218,00,19,02,247,00*43
$GPRMC,183514,A,4131.4805,N,07040.2568,W,000.0,000.0,070617,014.8,W*72
$GPGGA,183514,4131.4805,N,07040.2568,W,1,07,1.2,3.6,M,-32.9,M,,*7A
$GPGSA,A,3,01,07,08,,11,13,17,,30,,,,1.5,1.2,0.9*35
$GPGSV,3,1,11,01,63,136,32,07,43,190,37,08,34,058,27,10,03,033,17*75
$GPGSV,3,2,11,11,72,084,23,13,11,302,15,17,25,254,23,22,11,124,18*7A
$GPGSV,3,3,11,30,60,251,28,06,14,218,00,19,02,247,00*43
$GPRMC,183515,A,4131.4805,N,07040.2568,W,000.0,000.0,070617,014.8,W*73
$GPGGA,183515,4131.4805,N,07040.2568,W,1,07,1.2,3.6,M,-32.9,M,,*7B
$GPGSA,A,3,01,07,08,,11,13,17,,30,,,,1.5,1.2,0.9*35
$GPGSV,3,1,11,01,63,136,32,07,43,190,37,08,34,058,26,10,03,033,18*7B
$GPGSV,3,2,11,11,72,084,23,13,11,302,17,17,25,254,23,22,11,124,17*77
$GPGSV,3,3,11,30,60,251,27,06,14,218,00,19,02,247,00*4C
$GPRMC,183516,A,4131.4805,N,07040.2568,W,000.0,000.0,070617,014.8,W*70
$GPGGA,183516,4131.4805,N,07040.2568,W,1,07,1.2,3.6,M,-32.9,M,,*78
$GPGSA,A,3,01,07,08,,11,13,17,,30,,,,1.5,1.2,0.9*35
$GPGSV,3,1,11,01,63,136,32,07,43,190,37,08,33,058,26,10,03,033,19*7D
$GPGSV,3,2,11,11,72,084,23,13,11,302,15,17,25,254,23,22,11,124,17*75
$GPGSV,3,3,11,30,60,251,26,06,14,218,00,19,02,247,00*4D
$GPRMC,183517,A,4131.4804,N,07040.2569,W,000.0,000.0,070617,014.8,W*71
$GPGGA,183517,4131.4804,N,07040.2569,W,1,07,1.2,3.6,M,-32.9,M,,*79
$GPGSA,A,3,01,07,08,,11,13,17,,30,,,,1.5,1.2,0.9*35
$GPGSV,3,1,11,01,63,136,32,07,43,190,37,08,33,058,27,10,03,033,19*7C
$GPGSV,3,2,11,11,72,084,22,13,11,302,12,17,25,254,24,22,11,124,18*7B
$GPGSV,3,3,11,30,60,251,26,06,14,218,00,19,02,247,00*4D
$GPRMC,183518,A,4131.4804,N,07040.2568,W,000.0,000.0,070617,014.8,W*7F
$GPGGA,183518,4131.4804,N,07040.2568,W,1,07,1.2,3.6,M,-32.9,M,,*77
$GPGSA,A,3,01,07,08,,11,13,17,,30,,,,1.5,1.2,0.9*35
$GPGSV,3,1,11,01,63,136,32,07,43,190,38,08,33,058,27,10,03,033,19*73
$GPGSV,3,2,11,11,72,084,20,13,11,302,12,17,25,254,25,22,11,124,18*78
$GPGSV,3,3,11,30,60,251,27,06,14,218,00,19,02,247,00*4C
$GPRMC,183519,A,4131.4803,N,07040.2568,W,000.0,000.0,070617,014.8,W*79
$GPGGA,183519,4131.4803,N,07040.2568,W,1,07,1.2,3.6,M,-32.9,M,,*71
$GPGSA,A,3,01,07,08,,11,13,17,,30,,,,1.5,1.2,0.9*35
$GPGSV,3,1,11,01,63,136,32,07,43,190,38,08,33,058,27,10,03,033,19*73
$GPGSV,3,2,11,11,72,083,19,13,11,302,12,17,25,254,26,22,11,124,19*77
$GPGSV,3,3,11,30,60,251,27,06,14,218,00,19,02,247,00*4C
$GPRMC,183520,A,4131.4803,N,07040.2567,W,000.0,000.0,070617,014.8,W*7C
$GPGGA,183520,4131.4803,N,07040.2567,W,1,06,1.2,3.6,M,-32.9,M,,*75
$GPGSA,A,3,01,07,08,,11,17,,30,,,,,1.5,1.2,0.9*37
$GPGSV,3,1,11,01,63,136,32,07,43,190,38,08,33,058,27,10,03,033,19*73
$GPGSV,3,2,11,11,72,083,19,17,25,254,27,22,11,124,19,30,60,251,27*70
$GPGSV,3,3,11,06,14,218,00,13,11,303,00,19,02,247,00*48
$GPRMC,183521,A,4131.4802,N,07040.2566,W,000.0,000.0,070617,014.8,W*7D
$GPGGA,183521,4131.4802,N,07040.2566,W,1,06,1.2,3.6,M,-32.9,M,,*74
$GPGSA,A,3,01,07,08,,11,17,,30,,,,,1.5,1.2,0.9*37
$GPGSV,3,1,11,01,63,136,32,07,43,190,38,08,33,058,27,10,03,033,19*73
$GPGSV,3,2,11,11,72,083,19,17,25,254,27,22,11,124,20,30,60,251,27*7A
$GPGSV,3,3,11,06,14,218,00,13,11,303,00,19,02,247,00*48
$GPRMC,183522,A,4131.4801,N,07040.2565,W,000.0,000.0,070617,014.8,W*7E
$GPGGA,183522,4131.4801,N,07040.2565,W,1,07,1.2,3.6,M,-32.9,M,,*76
$GPGSA,A,3,01,07,08,,11,13,17,,30,,,,1.5,1.2,0.9*35
$GPGSV,3,1,11,01,63,136,31,07,43,190,38,08,33,058,27,10,03,033,19*70
$GPGSV,3,2,11,11,72,083,18,13,10,302,11,17,25,254,27,22,11,124,20*7F
$GPGSV,3,3,11,30,60,251,27,06,14,218,00,19,02,247,00*4C
$GPRMC,183523,A,4131.4800,N,07040.2563,W,000.0,000.0,070617,014.8,W*78
$GPGGA,183523,4131.4800,N,07040.2563,W,1,07,1.2,3.6,M,-32.9,M,,*70
$GPGSA,A,3,01,07,08,,11,13,17,,30,,,,1.5,1.2,0.9*35
$GPGSV,3,1,11,01,63,136,31,07,43,190,38,08,33,058,27,10,03,033,19*70
$GPGSV,3,2,11,11,72,083,18,13,10,302,11,17,25,254,27,22,11,124,20*7F
$GPGSV,3,3,11,30,60,251,28,06,14,218,00,19,02,247,00*43
$GPRMC,183524,A,4131.4799,N,07040.2562,W,000.0,000.0,070617,014.8,W*71
$GPGGA,183524,4131.4799,N,07040.2562,W,1,07,1.2,3.6,M,-32.9,M,,*79
$GPGSA,A,3,01,07,08,,11,13,17,,30,,,,1.5,1.2,0.9*35
$GPGSV,3,1,11,01,63,136,31,07,43,190,38,08,33,058,27,10,03,033,19*70
$GPGSV,3,2,11,11,72,083,18,13,10,302,12,17,25,254,27,22,11,124,19*76
$GPGSV,3,3,11,30,60,251,28,06,14,218,00,19,02,247,00*43
$GPRMC,183525,A,4131.4799,N,07040.2561,W,000.0,000.0,070617,014.8,W*73
$GPGGA,183525,4131.4799,N,07040.2561,W,1,06,1.6,3.6,M,-32.9,M,,*7E
$GPGSA,A,3,01,07,08,,11,17,,30,,,,,1.9,1.6,0.9*3F
$GPGSV,3,1,11,01,63,136,31,07,43,190,38,08,33,058,27,10,03,033,19*70
$GPGSV,3,2,11,11,72,083,18,17,25,254,27,22,11,124,19,30,60,251,27*71
$GPGSV,3,3,11,06,14,218,00,13,11,303,00,19,02,247,00*48
$GPRMC,183526,A,4131.4799,N,07040.2560,W,000.0,000.0,070617,014.8,W*71
$GPGGA,183526,4131.4799,N,07040.2560,W,1,06,1.6,3.6,M,-32.9,M,,*7C
$GPGSA,A,3,01,07,08,,11,17,,30,,,,,1.9,1.6,0.9*3F
$GPGSV,3,1,11,01,63,136,30,07,43,190,38,08,33,058,27,10,03,033,19*71
$GPGSV,3,2,11,11,72,083,20,17,25,254,26,22,11,124,18,30,60,251,26*7B
$GPGSV,3,3,11,06,14,218,00,13,11,303,00,19,02,247,00*48
$GPRMC,183527,A,4131.4798,N,07040.2559,W,000.0,000.0,070617,014.8,W*7B
$GPGGA,183527,4131.4798,N,07040.2559,W,1,06,1.6,3.6,M,-32.9,M,,*76
$GPGSA,A,3,01,07,08,,11,17,,30,,,,,1.9,1.6,0.9*3F
$GPGSV,3,1,11,01,63,136,30,07,43,190,38,08,33,058,26,10,03,033,20*7A
$GPGSV,3,2,11,11,72,083,21,17,25,254,25,22,11,124,17,30,60,251,19*7A
$GPGSV,3,3,11,06,14,218,00,13,11,303,00,19,02,247,00*48
$GPRMC,183528,A,4131.4798,N,07040.2558,W,000.0,000.0,070617,014.8,W*75
$GPGGA,183528,4131.4798,N,07040.2558,W,1,06,1.6,3.6,M,-32.9,M,,*78
$GPGSA,A,3,01,07,08,,11,17,,30,,,,,1.9,1.6,0.9*3F
$GPGSV,3,1,11,01,63,136,30,07,43,190,38,08,33,058,25,10,03,033,20*79
$GPGSV,3,2,11,11,72,083,22,17,25,254,25,22,11,124,16,30,60,251,18*79
$GPGSV,3,3,11,06,14,218,00,13,11,303,00,19,02,247,00*48
$GPRMC,183529,A,4131.4797,N,07040.2557,W,000.0,000.0,070617,014.8,W*74
$GPGGA,183529,4131.4797,N,07040.2557,W,1,06,1.6,3.6,M,-32.9,M,,*79
$GPGSA,A,3,01,07,08,,11,17,,30,,,,,1.9,1.6,0.9*3F
$GPGSV,3,1,11,01,63,136,30,07,43,190,38,08,33,058,26,10,03,033,19*70
$GPGSV,3,2,11,11,72,083,22,17,25,254,27,22,11,124,16,30,60,251,19*7A
$GPGSV,3,3,11,06,14,218,00,13,11,303,00,19,02,247,00*48
$GPRMC,183530,A,4131.4797,N,07040.2556,W,000.0,000.0,070617,014.8,W*7D
$GPGGA,183530,4131.4797,N,07040.2556,W,1,06,1.6,3.6,M,-32.9,M,,*70
$GPGSA,A,3,01,07,08,,11,17,,30,,,,,1.9,1.6,0.9*3F
$GPGSV,3,1,11,01,63,136,30,07,43,190,38,08,33,058,27,10,03,033,18*70
$GPGSV,3,2,11,11,72,083,22,17,25,254,27,22,11,124,16,30,60,251,21*71
$GPGSV,3,3,11,06,14,218,00,13,11,303,00,19,02,247,00*48
$GPRMC,183531,A,4131.4796,N,07040.2556,W,000.0,000.0,070617,014.8,W*7D
$GPGGA,183531,4131.4796,N,07040.2556,W,1,06,1.6,3.6,M,-32.9,M,,*70
$GPGSA,A,3,01,07,08,,11,17,,30,,,,,1.9,1.6,0.9*3F
$GPGSV,3,1,11,01,63,136,30,07,43,190,38,08,33,058,28,10,03,033,17*70
$GPGSV,3,2,11,11,72,083,22,17,25,254,27,22,11,124,16,30,60,251,22*72
$GPGSV,3,3,11,06,14,218,00,13,11,303,00,19,02,247,00*48
$GPRMC,183532,A,4131.4796,N,07040.2555,W,000.0,000.0,070617,014.8,W*7D
$GPGGA,183532,4131.4796,N,07040.2555,W,1,06,1.6,3.6,M,-32.9,M,,*70
$GPGSA,A,3,01,07,08,,11,17,,30,,,,,1.9,1.6,0.9*3F
$GPGSV,3,1,11,01,63,136,30,07,43,190,38,08,33,058,27,10,03,033,17*7F
$GPGSV,3,2,11,11,72,083,22,17,25,254,26,22,11,124,17,30,60,251,24*74
$GPGSV,3,3,11,06,14,218,00,13,11,303,00,19,02,247,00*48
$GPRMC,183533,A,4131.4796,N,07040.2555,W,000.0,000.0,070617,014.8,W*7C
$GPGGA,183533,4131.4796,N,07040.2555,W,1,06,1.6,3.6,M,-32.9,M,,*71
$GPGSA,A,3,01,07,08,,11,17,,30,,,,,1.9,1.6,0.9*3F
$GPGSV,3,1,11,01,63,136,30,07,43,190,38,08,33,058,26,10,03,033,17*7E
$GPGSV,3,2,11,11,72,083,23,17,25,254,25,22,11,124,18,30,60,251,25*78
